{
  "type": "FeatureCollection",
  "features": [
    {
      "type": "Feature",
      "properties": {
        "id": "main-block",
        "name": "Main Block",
        "category": "building",
        "aliases": ["main block", "mb", "admin block"],
        "description": "Primary academic block with administrative offices and lecture halls."
      },
      "geometry": {
        "type": "Point",
        "coordinates": [76.9062601, 8.5458387]
      }
    },
    {
      "type": "Feature",
      "properties": {
        "id": "eee-block",
        "name": "EEE Block",
        "category": "building",
        "aliases": ["eee block", "electrical", "eee"],
        "description": "Electrical and Electronics Engineering department."
      },
      "geometry": {
        "type": "Point",
        "coordinates": [76.907794, 8.545427]
      }
    },
    {
      "type": "Feature",
      "properties": {
        "id": "mechanical-complex",
        "name": "Mechanical Complex",
        "category": "building",
        "aliases": ["mechanical block", "me block", "workshop"],
        "description": "Mechanical engineering labs and workshops."
      },
      "geometry": {
        "type": "Point",
        "coordinates": [76.906955, 8.545823]
      }
    },
    {
      "type": "Feature",
      "properties": {
        "id": "civil-block",
        "name": "Civil Block",
        "category": "building",
        "aliases": ["civil block", "civil", "survey lab"],
        "description": "Civil engineering classrooms and survey labs."
      },
      "geometry": {
        "type": "Point",
        "coordinates": [76.904935, 8.544961]
      }
    },
    {
      "type": "Feature",
      "properties": {
        "id": "library",
        "name": "Central Library",
        "category": "building",
        "aliases": ["library", "lib", "reading hall"],
        "description": "24x7 reading hall and digital resources."
      },
      "geometry": {
        "type": "Point",
        "coordinates": [76.906574, 8.545473]
      }
    },
    {
      "type": "Feature",
      "properties": {
        "id": "lh-auditorium",
        "name": "Lower Campus Auditorium",
        "category": "building",
        "aliases": ["auditorium", "lh audi"],
        "description": "Indoor events and performances venue."
      },
      "geometry": {
        "type": "Point",
        "coordinates": [76.90511, 8.54656]
      }
    }
  ]
}
